[
    {
        "address": "BETONIMIEHENKUJA 5, 02150, Espoo",
        "lat": 60.18097,
        "lon": 24.83166
    },
    {
        "address": "KEMISTINTIE 1, 02150, Espoo",
        "lat": 60.18364,
        "lon": 24.82472
    },
    {
        "address": "KONEMIEHENTIE 1, 02150, Espoo",
        "lat": 60.1873,
        "lon": 24.82339
    },
    {
        "address": "KONEMIEHENTIE 2, 02150, Espoo",
        "lat": 60.18742,
        "lon": 24.82247
    },
    {
        "address": "KONEMIEHENTIE 4, 02150, Espoo",
        "lat": 60.1879125,
        "lon": 24.8230807
    },
    {
        "address": "LÄMPÖMIEHENKUJA 2, 02150, Espoo",
        "lat": 60.18207,
        "lon": 24.83225
    },
    {
        "address": "LÄMPÖMIEHENKUJA 3, 02150, Espoo",
        "lat": 60.18163,
        "lon": 24.83061
    },
    {
        "address": "MAARINTIE 6, 02150, Espoo",
        "lat": 60.18711,
        "lon": 24.81939
    },
    {
        "address": "MAARINTIE 8, 02150, Espoo",
        "lat": 60.18711,
        "lon": 24.81939
    },
    {
        "address": "METALLIMIEHENKUJA 10, 02150, Espoo",
        "lat": 60.18253,
        "lon": 24.83028
    },
    {
        "address": "METALLIMIEHENKUJA 4, 02150, Espoo",
        "lat": 60.18343,
        "lon": 24.82904
    },
    {
        "address": "METSÄHOVINTIE 114, 02540, Kirkkonummi",
        "lat": 60.2189046,
        "lon": 24.3934467
    },
    {
        "address": "OTAKAARI 1, 02150, Espoo",
        "lat": 60.18609,
        "lon": 24.82829
    },
    {
        "address": "OTAKAARI 24, 02150, Espoo",
        "lat": 60.18521,
        "lon": 24.83233
    },
    {
        "address": "OTAKAARI 3, 02150, Espoo",
        "lat": 60.1883045,
        "lon": 24.8292797
    },
    {
        "address": "OTAKAARI 4, 02150, Espoo",
        "lat": 60.18719,
        "lon": 24.82684
    },
    {
        "address": "OTAKAARI 5, 02150, Espoo",
        "lat": 60.18903,
        "lon": 24.83165
    },
    {
        "address": "OTAKAARI 7, 02150, Espoo",
        "lat": 60.18902,
        "lon": 24.83316
    },
    {
        "address": "OTAKAARI 8, 02150, Espoo",
        "lat": 60.1885502,
        "lon": 24.8290554
    },
    {
        "address": "OTANIEMENTIE 9, 02150, Espoo",
        "lat": 60.1836131,
        "lon": 24.8308962
    },
    {
        "address": "PUUMIEHENKUJA 2, 02150, Espoo",
        "lat": 60.18696,
        "lon": 24.82498
    },
    {
        "address": "PUUMIEHENKUJA 3, 02150, Espoo",
        "lat": 60.18785,
        "lon": 24.82533
    },
    {
        "address": "PUUMIEHENKUJA 5, 02150, Espoo",
        "lat": 60.18842,
        "lon": 24.8246
    },
    {
        "address": "RAKENTAJANAUKIO 4, 02150, Espoo",
        "lat": 60.18738,
        "lon": 24.83049
    },
    {
        "address": "RUNEBERGINKATU 14-16, 00100, Helsinki",
        "lat": 60.17186,
        "lon": 24.92289
    },
    {
        "address": "SÄHKÖMIEHENTIE 3, 02150, Espoo",
        "lat": 60.18925,
        "lon": 24.82621
    },
    {
        "address": "SÄHKÖMIEHENTIE 4, 02150, Espoo",
        "lat": 60.18875,
        "lon": 24.82571
    },
    {
        "address": "TEKNIIKANTIE 3, 02150, Espoo",
        "lat": 60.18094,
        "lon": 24.82537
    },
    {
        "address": "TIETOTIE 1, 02150, Espoo",
        "lat": 60.18561,
        "lon": 24.81956
    },
    {
        "address": "VUORIMIEHENTIE 1, 02150, Espoo",
        "lat": 60.18167,
        "lon": 24.82504
    },
    {
        "address": "VUORIMIEHENTIE 2, 02150, Espoo",
        "lat": 60.18289,
        "lon": 24.82484
    }
]